,City,Latitude,Longitude,Temp,Humidity,Cloudiness,Wind Speed
0,Busselton,-33.65,115.33,55.92,73,7,13.91
1,Ascension,30.22,-90.9,78.19,83,34,4.03
2,Huarmey,-10.07,-78.15,59.61,85,10,9.08
3,Bitung,1.45,125.18,87.8,66,20,2.24
4,Faanui,-16.48,-151.75,77.05,83,99,17.78
5,Kiryat Gat,31.61,34.76,70.66,84,1,6.53
6,Santa Helena de Goiás,-17.81,-50.6,67.15,42,0,2.59
7,La Romana,18.43,-68.97,77.0,94,75,4.7
8,Jalu,29.03,21.55,77.31,54,0,6.82
9,Vaini,-21.2,-175.2,78.8,83,75,11.41
10,Provideniya,64.38,-173.3,50.34,89,100,3.24
11,Oranjestad,12.52,-70.03,82.4,78,20,21.92
12,Beisfjord,68.38,17.6,53.6,87,98,21.92
13,Orocué,4.79,-71.34,75.51,88,91,4.03
14,Aksarka,66.56,67.8,52.68,90,100,13.49
15,East London,-33.02,27.91,62.76,26,0,5.03
16,Lakshmīpur,22.95,90.83,85.53,77,47,10.04
17,Aksu,41.12,80.26,79.48,38,100,10.27
18,Portobelo,9.55,-79.65,80.55,83,20,5.82
19,Albany,42.6,-73.97,72.16,96,0,6.96
20,Mar del Plata,-38.0,-57.56,50.88,93,90,9.17
21,Ushuaia,-54.8,-68.3,26.6,92,40,3.36
22,Lata,40.16,-8.33,70.32,68,0,2.26
23,Cape Town,-33.93,18.42,57.06,44,0,11.41
24,Sinnamary,5.38,-52.95,78.4,85,100,10.07
25,Zlobin,45.29,14.65,63.66,45,3,6.93
26,Mersing,2.43,103.84,82.4,88,20,2.24
27,Valenza,45.01,8.64,69.01,76,92,10.87
28,Hermanus,-34.42,19.23,59.92,43,0,8.43
29,Qaanaaq,77.48,-69.36,45.9,73,100,10.04
30,Puerto Ayora,-0.74,-90.35,69.01,90,26,3.0
31,Cambridge,43.36,-80.31,74.97,61,1,8.05
32,Najrān,17.49,44.13,89.6,21,75,5.82
33,Avarua,-21.21,-159.78,73.4,60,27,8.05
34,Bogorodskoye,56.55,37.88,53.83,96,70,3.31
35,Gadwāl,16.23,77.8,76.12,85,74,7.81
36,Jamestown,42.1,-79.24,68.07,82,1,1.74
37,Rikitea,-23.12,-134.97,73.2,83,100,13.27
38,Punta Arenas,-53.15,-70.92,33.4,74,100,11.41
39,Ürümqi,43.8,87.6,91.4,21,0,6.71
40,Mataura,-46.19,168.86,39.0,83,0,3.0
41,Port Elizabeth,-33.92,25.57,41.0,29,0,4.7
42,Thompson,55.74,-97.86,68.0,68,90,3.58
43,Hobart,-42.88,147.33,43.66,76,75,8.05
44,Cherskiy,68.75,161.3,63.21,56,91,8.39
45,Dikson,73.51,80.55,40.6,95,72,9.89
46,Padang,-0.95,100.35,82.31,73,76,2.17
47,Santa Cruz de la Sierra,-17.8,-63.17,71.6,88,0,6.93
48,Ribeira Grande,38.52,-28.7,69.84,80,4,13.69
49,Lethem,3.38,-59.8,75.78,86,94,4.29
50,Pontianak,-0.03,109.33,81.73,80,94,3.02
51,Vacaria,-28.51,-50.93,64.0,93,42,6.93
52,Tiksi,71.69,128.87,47.55,65,86,13.04
53,São Filipe,14.9,-24.5,75.07,75,5,8.19
54,Bluff,-46.6,168.33,39.0,83,0,3.0
55,George Town,5.41,100.34,81.66,88,20,2.24
56,Skagen,57.72,10.58,64.33,87,100,7.0
57,Itaituba,-4.28,-55.98,76.33,82,32,0.16
58,Dali,25.7,100.18,65.1,86,100,4.97
59,Kapaa,22.08,-159.32,84.67,74,40,10.29
60,Laguna,38.42,-121.42,84.06,34,1,13.87
61,Yangi Marg`ilon,40.43,71.72,78.8,39,40,9.17
62,Saskylakh,71.92,114.08,55.36,69,80,8.93
63,Mahébourg,-20.41,57.7,69.8,68,40,14.99
64,Masvingo,-20.06,30.83,43.93,94,1,3.94
65,Vila Velha,-20.33,-40.29,69.06,94,75,2.24
66,New Norfolk,-42.78,147.06,41.99,83,100,3.76
67,Castro,-24.79,-50.01,57.38,89,0,1.81
68,Yarim,14.3,44.38,61.36,65,99,4.32
69,Kiruna,67.86,20.23,53.6,93,46,3.36
70,Rio Grande,-32.03,-52.1,55.99,98,58,3.0
71,Beya,53.05,90.91,63.55,71,55,7.38
72,Murom,55.57,42.04,54.0,95,3,3.2
73,Ilulissat,69.22,-51.1,51.8,61,67,6.93
74,Bredasdorp,-34.53,20.04,46.4,70,0,3.36
75,Russell,32.35,-85.2,80.96,83,1,2.71
76,Arraial do Cabo,-22.97,-42.03,70.47,77,61,16.58
77,Tasiilaq,65.61,-37.64,42.8,87,0,1.12
78,Saint George,37.1,-113.58,100.51,8,1,13.87
79,Port Alfred,-33.59,26.89,62.76,28,0,12.5
80,Bengkulu,-3.8,102.27,80.47,75,100,5.26
81,Lázaro Cárdenas,17.96,-102.2,81.32,80,0,4.34
82,Lavrentiya,65.58,-171.0,47.66,72,0,7.09
83,Hauknes,66.28,14.07,48.2,93,10,2.24
84,Kruisfontein,-34.0,24.73,54.32,35,0,10.69
85,Kwinana,-32.25,115.77,55.29,81,75,6.93
86,Tondano,1.3,124.91,87.8,66,20,2.24
87,Mascalucia,37.59,15.03,72.61,83,0,4.7
88,Florø,61.6,5.03,55.4,82,27,13.87
89,Beringovskiy,63.05,179.32,55.62,73,68,8.1
90,Grindavik,63.84,-22.43,44.6,81,75,27.51
91,Tuktoyaktuk,69.45,-133.04,44.6,87,75,11.41
92,Bowmore,34.94,-79.3,79.88,74,1,5.82
93,Eyemouth,55.87,-2.09,55.99,94,81,8.21
94,‘Āhuimanu,21.44,-157.84,83.28,74,75,10.29
95,Azul,-36.78,-59.86,52.41,92,100,12.53
96,Wanning,18.8,110.4,87.76,68,83,12.06
97,Hualmay,-11.1,-77.61,58.89,82,5,8.37
98,Barrow,71.29,-156.79,37.4,74,75,17.22
99,Ostrovnoy,68.05,39.51,56.39,63,100,2.8
100,Hamilton,39.18,-84.53,77.43,69,20,2.64
101,Goubellat,36.54,9.66,73.4,64,20,10.29
102,Hilo,19.73,-155.09,79.65,66,20,9.17
103,Atuona,-9.8,-139.03,79.34,75,20,16.31
104,Buraidah,26.33,43.98,86.0,25,20,5.95
105,Shaoyang,27.23,111.45,86.49,66,94,6.38
106,Mlonggo,-6.53,110.7,87.8,55,20,1.12
107,Pasni,25.26,63.47,89.38,66,0,10.0
108,Kavaratti,10.57,72.64,83.17,79,100,18.3
109,Valle Nacional,17.78,-96.32,74.35,81,97,3.47
110,Iqaluit,63.75,-68.51,44.29,93,90,9.17
111,Pacifica,37.61,-122.49,60.69,87,90,9.17
112,Hithadhoo,-0.6,73.08,83.61,77,80,11.68
113,Dahuk,36.87,42.99,78.08,20,0,2.98
114,Anadyr,64.75,177.48,55.18,82,78,17.9
115,Along,28.17,94.77,75.27,89,100,0.56
116,Leningradskiy,69.38,178.42,39.22,78,85,16.55
117,Namatanai,-3.67,152.43,83.35,74,92,5.35
118,Guerrero Negro,27.98,-114.06,72.03,68,0,15.66
119,Nyurba,63.28,118.33,66.94,59,61,6.69
120,City of San Pedro,14.35,121.02,89.98,66,94,9.17
121,Balkhash,46.84,74.98,80.38,41,70,12.26
122,Hokitika,-42.72,170.97,55.74,51,0,1.5
123,Guadalajara,20.67,-103.33,74.05,47,75,9.17
124,Lucea,18.45,-78.17,78.71,83,20,3.36
125,Gigmoto,13.78,124.39,86.49,64,64,7.38
126,Charters Towers,-20.1,146.27,67.96,34,24,5.19
127,Upernavik,72.79,-56.15,46.22,58,100,7.74
128,Salalah,17.02,54.09,82.4,83,40,5.82
129,Golovchino,50.53,35.8,57.2,82,0,6.71
130,Kermanshah,34.31,47.06,71.6,35,0,2.66
131,Firozpur,30.92,74.6,86.0,84,20,11.41
132,Praia,14.92,-23.51,75.2,73,40,10.29
133,Taltal,-25.4,-70.48,54.55,76,46,6.46
134,Serenje,-13.23,30.24,48.24,90,100,15.59
135,Dukat,62.55,155.55,51.6,61,92,19.42
136,Khatanga,71.97,102.5,41.31,91,100,9.64
137,Coquimbo,-29.95,-71.34,51.8,81,90,6.93
138,Abū Zabad,12.35,29.25,75.72,68,8,14.83
139,Nanortalik,60.14,-45.24,45.64,70,100,9.95
140,Olenino,56.21,33.49,47.39,93,0,5.32
141,Kavieng,-2.57,150.8,83.05,74,100,8.34
142,Nantucket,41.28,-70.1,68.27,94,90,8.05
143,Örnsköldsvik,63.29,18.72,60.8,72,100,4.7
144,Lompoc,34.64,-120.46,65.14,68,25,11.41
145,Pierre,44.37,-100.35,91.33,40,1,3.36
146,Madang,-5.22,145.8,78.71,89,100,6.69
147,Tuatapere,-46.13,167.68,39.0,83,0,3.0
148,Arcata,40.87,-124.08,60.87,72,1,6.93
149,Maniitsoq,65.42,-52.9,52.95,66,55,6.42
150,San Diego,32.72,-117.16,72.7,64,20,12.75
151,Pathein,16.78,94.73,83.19,79,100,6.02
152,Yarke Pole,45.61,34.32,66.11,81,0,4.83
153,Yellowknife,62.46,-114.35,69.8,40,75,9.17
154,Boyolangu,-8.12,111.89,78.75,74,53,8.86
155,Gondanglegi,-7.75,112.01,80.64,71,1,14.97
156,Ponta do Sol,32.67,-17.1,69.35,38,1,1.01
157,Waipawa,-41.41,175.52,54.27,82,100,11.41
158,Batticaloa,7.71,81.69,83.1,73,100,5.48
159,San Quintín,30.48,-115.95,69.96,75,0,14.12
160,Zhuhai,22.28,113.57,90.73,79,20,11.41
161,Carnarvon,-24.87,113.63,60.8,55,0,19.46
162,Nagornyy,52.8,83.55,68.0,52,0,8.95
163,Tura,25.52,90.22,78.6,92,100,6.02
164,Viedma,-40.81,-63.0,51.01,85,100,4.0
165,Omboué,-1.57,9.26,72.77,89,100,7.4
166,Chokurdakh,70.63,147.92,57.69,46,0,7.61
167,Dingle,11.0,122.67,85.03,74,100,9.86
168,Norman Wells,65.28,-126.83,66.2,68,75,20.8
169,Cidreira,-30.18,-50.21,60.94,89,4,14.7
170,Libertador General San Martín,-23.81,-64.79,59.9,84,39,2.48
171,Butaritari,3.07,172.79,83.52,76,8,14.97
172,Mezen',65.85,44.24,52.75,77,34,6.49
173,Mehamn,71.04,27.85,58.37,80,100,9.82
174,Husavik,66.04,-17.34,42.8,87,90,19.46
175,Hong Kong,22.29,114.16,89.2,62,92,15.01
176,Cabo San Lucas,22.89,-109.91,83.98,58,5,16.11
177,Burdur,37.72,30.29,68.0,60,0,8.05
178,Genhe,50.78,121.52,84.07,44,100,1.45
179,São José da Coroa Grande,-8.9,-35.15,75.2,84,69,15.21
180,Ancud,-41.87,-73.82,49.06,93,75,11.41
181,Pisco,-13.7,-76.22,60.46,82,40,12.75
182,Oodweyne,9.41,45.06,70.66,51,95,18.97
183,Bethel,41.37,-73.41,72.45,94,75,0.76
184,San Ramon,37.78,-121.98,69.76,50,1,12.75
185,Pevek,69.7,170.31,45.79,78,40,1.99
186,Iberia,29.95,-91.75,75.79,88,75,3.36
187,Saint-François,46.42,3.91,52.84,87,1,2.24
188,Saldanha,-33.01,17.94,51.8,66,0,5.82
189,Brunswick,41.24,-81.84,73.02,57,1,4.7
190,Morón,-34.65,-58.62,53.98,97,100,3.0
191,Walvis Bay,-22.96,14.51,68.0,14,0,21.92
192,Talnakh,69.49,88.4,48.2,87,75,15.66
193,Christchurch,-43.53,172.63,48.97,93,100,3.36
194,Gimli,50.63,-96.99,70.27,99,100,5.99
195,Road Town,18.42,-64.62,81.34,87,0,1.99
196,Takoradze,4.88,-1.76,74.8,91,52,6.98
197,San Patricio,19.22,-104.7,82.4,69,40,2.62
198,Sangar,63.92,127.47,70.93,62,97,8.46
199,Juneau,58.3,-134.42,57.2,82,90,17.22
200,College,64.86,-147.8,66.99,52,75,10.29
201,Tumut,-35.3,148.22,55.99,64,2,3.74
202,Krasnoarmeysk,51.02,45.7,66.99,52,100,7.0
203,Vardø,70.37,31.11,56.53,81,100,9.75
204,Necochea,-38.55,-58.74,52.0,90,100,8.01
205,Pangnirtung,66.15,-65.71,54.34,61,100,4.05
206,Codrington,-38.27,141.97,52.74,66,100,17.63
207,Tautira,-17.73,-149.15,78.4,74,40,2.24
208,Riyadh,24.69,46.72,87.8,15,0,6.93
209,Airai,-8.93,125.41,69.84,68,40,4.76
210,Voloshka,61.33,40.09,52.36,98,65,4.38
211,Vanimo,-2.67,141.3,81.45,81,100,4.94
212,Kaitangata,-46.28,169.85,52.0,51,14,4.0
213,Alyangula,-13.85,136.42,82.4,48,7,5.82
214,Hue,16.47,107.6,89.6,62,20,2.24
215,Buritis,-15.62,-46.42,63.95,59,5,1.68
216,Kumul,42.8,93.45,86.36,17,0,7.76
217,Marrakesh,31.63,-8.01,77.0,38,7,5.82
218,Ballina,-28.87,153.57,64.15,63,90,13.87
219,Wanaka,-44.7,169.15,37.0,81,0,1.01
220,Mount Isa,-20.73,139.5,75.2,13,1,5.82
221,Mossamedes,-15.2,12.15,67.55,56,0,3.02
222,Pergamino,-33.89,-60.57,51.01,94,100,1.99
223,Lima,-12.04,-77.03,60.8,77,40,6.93
224,Ust-Nera,64.57,143.2,68.52,33,99,4.85
225,West Bay,19.37,-81.42,82.98,79,0,1.99
226,Auki,-8.77,160.7,86.07,63,100,3.13
227,Verkhoyansk,67.54,133.38,56.88,76,100,4.29
228,Calabasas,34.16,-118.64,76.86,34,1,10.29
229,Caravelas,-17.71,-39.25,68.2,70,0,5.61
230,Córdoba,-31.41,-64.18,48.78,93,21,5.82
231,São Raimundo das Mangabeiras,-7.02,-45.48,73.98,53,15,2.57
232,Pozo Colorado,-23.49,-58.8,73.26,50,47,7.78
233,Ust'-Kulom,61.69,53.69,62.35,81,0,3.67
234,Tongchuanshi,35.08,109.09,75.49,58,100,2.57
235,Perbaungan,3.57,98.96,84.29,88,40,4.7
236,Belawan,3.78,98.68,84.27,88,40,4.7
237,Ozuluama de Mascareñas,21.67,-97.85,84.2,79,5,9.17
238,Stokmarknes,68.56,14.91,53.53,82,19,11.01
239,Richards Bay,-28.78,32.04,54.01,73,0,8.3
240,Camacupa,-12.02,17.48,42.04,68,0,4.21
241,Gladstone,-23.85,151.25,71.6,43,22,6.93
242,Sitka,57.05,-135.33,55.4,93,90,3.94
243,Qaqortoq,60.72,-46.03,51.8,65,100,8.05
244,Santa Vitória do Palmar,-33.52,-53.37,56.57,96,68,9.57
245,Fort Nelson,58.81,-122.7,71.6,53,40,6.93
246,Tayoltita,24.08,-105.93,71.1,73,100,5.91
247,Kharp,66.8,65.81,54.3,87,100,10.8
248,Alcañiz,41.05,-0.13,64.99,63,0,11.83
249,Bambous Virieux,-20.34,57.76,68.02,68,40,14.99
250,Gorontalo,0.54,123.06,85.84,68,16,3.0
251,Baruun-Urt,46.68,113.28,52.99,87,100,15.61
252,Makakilo City,21.35,-158.09,86.65,66,1,13.87
253,Gardez,33.6,69.23,67.55,49,16,4.16
254,Grand Bank,47.1,-55.77,55.26,73,46,2.75
255,Cap-aux-Meules,47.38,-61.86,60.8,72,40,9.17
256,Srandakan,-7.94,110.25,80.42,72,76,9.98
257,Awjilah,29.11,21.29,77.14,54,0,7.54
258,Saint Paul Harbor,57.79,-152.41,57.2,82,90,9.17
259,Puerto Cabezas,14.04,-83.39,79.07,85,35,6.38
260,Atlantic City,39.36,-74.42,79.03,78,75,3.36
261,Villa Bruzual,9.33,-69.12,74.16,92,9,1.21
262,Cairns,-16.92,145.77,76.1,50,20,13.87
263,Te Anau,-45.42,167.72,42.66,63,0,1.39
264,Ivanteyevka,55.97,37.92,60.12,87,40,4.47
265,Warrnambool,-38.38,142.48,50.0,81,100,11.01
266,Kapuskasing,49.42,-82.43,73.4,64,40,3.36
267,Saint-Philippe,-21.36,55.77,57.06,72,75,10.29
268,Meghri,38.9,46.24,72.57,43,1,3.94
269,Fare,-16.7,-151.02,78.22,80,61,19.35
270,Port Blair,11.67,92.75,80.6,83,40,1.12
271,São Miguel do Araguaia,-13.28,-50.16,71.78,38,0,5.3
272,Kununurra,-15.77,128.73,82.4,16,0,5.82
273,Kingisepp,59.37,28.61,58.05,83,49,4.27
274,Tynda,55.17,124.72,72.75,82,67,4.94
275,Fairbanks,64.84,-147.72,67.05,49,75,13.87
276,Geraldton,-28.77,114.6,57.2,76,40,10.29
277,Balabac,7.99,117.06,85.51,69,10,9.86
278,Bathsheba,13.22,-59.52,82.4,74,75,14.99
279,Bonthe,7.53,-12.51,76.62,81,100,7.67
280,Skjervøy,70.03,20.97,51.17,92,100,4.18
281,Umluj,25.02,37.27,80.49,68,82,1.83
282,Lexington Park,38.27,-76.45,77.49,88,75,4.7
283,Severo-Kuril'sk,50.68,156.12,53.17,81,100,9.71
284,Kulhudhuffushi,6.62,73.07,83.41,75,100,17.69
285,Rawson,-43.3,-65.1,50.97,63,1,17.92
286,Malakal,9.53,31.66,72.3,86,99,2.82
287,Clyde River,70.47,-68.59,39.2,93,1,11.41
288,Kenai,60.55,-151.26,65.28,63,90,3.36
289,Klerksdorp,-26.85,26.67,41.79,46,0,2.39
290,Longyearbyen,78.22,15.64,48.2,70,40,12.75
291,Verín,41.94,-7.44,57.0,16,0,1.86
292,Lufilufi,-13.87,-171.6,78.01,94,37,8.01
293,Kalabo,-14.97,22.68,44.38,65,0,6.62
294,Barra de Tecoanapa,16.52,-98.75,82.18,75,70,5.59
295,Vuktyl,63.86,57.31,63.91,92,47,6.08
296,Japura,-0.32,102.35,80.01,85,34,3.09
297,Ponta Delgada,37.73,-25.67,68.0,82,75,8.05
298,San Cristobal,7.77,-72.22,66.69,92,67,4.18
299,Kabalo,-6.05,26.92,66.13,44,0,10.29
300,Sisimiut,66.94,-53.67,51.39,67,42,2.24
301,Xam Nua,20.42,104.04,80.53,60,100,3.94
302,Conceição do Araguaia,-8.26,-49.26,78.8,61,54,2.24
303,Iroquois Falls,48.77,-80.68,69.8,73,20,2.24
304,Bracciano,42.1,12.18,62.65,79,0,5.32
305,Baharly,38.44,57.43,86.9,30,0,4.81
306,Asău,46.43,26.4,55.99,95,95,3.13
307,Esperance,-33.87,121.9,48.2,87,31,16.11
308,Ucluelet,48.93,-125.55,67.35,64,20,9.17
309,Axum,14.12,38.72,58.5,91,65,1.01
310,Jacksonville,30.33,-81.66,82.45,74,40,8.05
311,Half Moon Bay,37.46,-122.43,65.86,87,90,9.17
312,Tazovsky,67.47,78.7,50.07,71,80,3.62
313,Fes,34.04,-5.0,78.8,50,94,8.05
314,Stephenville,32.22,-98.2,86.9,48,1,8.05
315,Egvekinot,66.32,-179.17,48.25,92,100,4.21
316,Kahului,20.89,-156.47,84.36,49,20,18.34
317,Porto de Moz,-1.75,-52.24,75.43,80,39,3.74
318,Orlik,52.52,99.83,60.89,46,2,8.41
319,Stolin,51.89,26.85,57.09,94,3,5.3
320,Pinega,64.7,43.39,51.58,82,0,6.29
321,Pochutla,15.74,-96.47,81.0,78,68,4.43
322,Anshun,26.25,105.93,73.69,83,94,15.93
323,Kushmurun,52.45,64.63,77.59,66,1,11.27
324,Ternate,0.8,127.4,82.65,73,0,2.75
325,Barcelona,41.39,2.16,72.68,83,20,5.82
326,Carrick-on-Suir,52.35,-7.41,59.02,88,100,4.0
327,Sri Aman,1.24,111.46,76.03,94,40,0.45
328,Angoche,-16.23,39.91,69.66,77,11,13.56
329,Pacific Grove,36.62,-121.92,62.26,68,1,9.17
330,Bilma,18.69,12.92,82.17,48,0,12.44
331,Fairview,40.81,-74.0,79.02,83,20,3.36
332,Det Udom,14.91,105.08,89.8,70,20,2.24
333,Ladário,-19.0,-57.6,71.65,41,3,0.87
334,Nome,64.5,-165.41,66.43,52,1,18.34
335,Henties Bay,-22.12,14.28,68.72,26,0,19.69
336,Scarborough,54.28,-0.4,62.22,86,100,3.0
337,Dossor,47.53,52.98,85.15,52,98,10.02
338,Harper,4.38,-7.72,74.89,84,75,5.93
339,Lodja,-3.48,23.43,68.5,62,0,1.12
340,Ambon City,-3.7,128.18,84.2,74,40,8.05
341,Ciudad Bolivar,8.12,-63.55,79.93,78,99,10.58
342,Tsévié,6.43,1.21,75.2,94,20,5.82
343,Quelimane,-17.88,36.89,66.06,86,40,7.83
344,Salto,-31.38,-57.97,59.0,90,95,11.01
345,Kudahuvadhoo,2.67,72.89,83.93,71,100,7.4
346,Burley,42.54,-113.79,86.0,28,1,5.82
347,Prince Albert,53.2,-105.77,75.2,53,75,13.87
348,Kualakapuas,-3.01,114.39,82.4,83,40,2.24
349,Sehwan,26.43,67.86,84.2,70,40,9.1
350,Larap,14.3,122.65,87.51,66,80,7.67
351,Chernyshevskiy,63.01,112.47,57.13,76,83,8.05
352,Nikolskoye,59.7,30.79,56.03,87,0,2.24
353,Kysyl-Syr,63.9,122.76,57.87,95,100,5.14
354,Roald,62.58,6.13,54.86,71,1,9.17
355,Hay River,60.82,-115.8,62.6,72,75,10.29
356,Haines Junction,60.75,-137.51,62.42,44,90,8.59
357,Amuntai,-2.42,115.25,83.75,78,4,2.1
358,São João da Barra,-21.64,-41.05,69.64,76,2,10.63
359,Hornepayne,49.21,-84.77,64.11,69,0,7.07
360,Monduli,-3.3,36.45,55.4,76,40,4.7
361,Kautokeino,69.01,23.04,56.86,90,83,16.73
362,Kramat,-8.13,113.45,79.45,70,77,4.59
363,Salmo,49.2,-117.27,64.0,55,26,1.99
364,Tambovka,50.1,128.05,84.2,70,20,11.18
365,Arman',59.7,150.17,59.09,78,94,6.26
366,Valkeakoski,61.26,24.03,59.0,77,92,6.93
367,Porbandar,21.64,69.61,82.96,86,11,11.7
368,Wiwilí,13.63,-85.83,73.2,84,62,3.58
369,Eureka,40.8,-124.16,60.53,76,2,3.0
370,Palmer,42.16,-72.33,68.09,94,20,3.36
371,Vanavara,60.34,102.28,48.58,91,100,10.25
372,Sakaraha,-22.9,44.53,52.39,90,0,4.16
373,Cururupu,-1.83,-44.87,73.09,93,10,0.51
374,Rocky Mountain House,52.37,-114.92,55.27,87,71,14.29
375,Portland,45.52,-122.68,67.84,46,75,13.87
376,Port Lincoln,-34.73,135.87,59.5,63,67,21.54
377,Srednekolymsk,67.45,153.68,62.47,41,63,12.77
378,Kalevala,65.2,31.17,57.11,72,91,3.42
379,Kahramanmaraş Province,38.0,37.0,75.2,78,0,6.93
380,Bubaque,11.28,-15.83,79.29,82,100,18.66
381,Helena,46.59,-112.04,72.07,31,1,19.46
382,Krasnosel'kup,65.7,82.47,57.78,61,0,7.43
383,La Rioja,42.25,-2.5,59.0,82,0,8.05
384,Kilindoni,-7.91,39.67,76.64,66,54,22.24
385,Kapoeta,4.77,33.59,71.62,80,100,3.65
386,Astoria,46.19,-123.83,62.11,77,90,11.41
387,Tarabuco,-19.17,-64.92,47.28,64,0,4.43
388,Isangel,-19.55,169.27,78.8,57,20,11.41
389,Kyren,51.68,102.14,62.46,65,72,4.94
390,Katangli,51.71,143.23,61.77,93,100,0.83
391,Diffa,13.32,12.61,77.41,75,83,11.43
392,Nazrēt,8.55,39.27,60.76,87,82,8.01
393,Pancas,-19.23,-40.85,60.94,89,1,1.92
394,Yong’an,39.7,113.69,70.59,63,92,5.1
395,Emerald,-23.53,148.17,66.99,32,0,9.17
396,Bourail,-21.57,165.48,73.98,46,0,7.36
397,Bhanjanagar,19.93,84.58,84.58,73,14,2.3
398,Beroroha,-21.67,45.17,56.08,78,0,3.76
399,Qandala,11.47,49.87,88.29,43,100,10.83
400,Virginia Beach,36.85,-75.98,83.35,70,75,3.36
401,Yulara,-25.24,130.99,60.8,23,33,1.12
402,Chapais,49.78,-74.85,66.2,82,75,4.7
403,Merauke,-8.47,140.33,80.47,69,17,15.68
404,Halifax,44.65,-63.57,58.78,87,99,1.01
405,Gatton,-27.55,152.28,66.83,40,0,4.7
406,Vung Tau,10.35,107.08,85.28,68,32,5.1
407,Obo,5.4,26.49,67.1,99,100,3.94
408,Dawlatabad,36.41,64.91,84.22,18,0,4.83
409,Monte Alegre,-2.01,-54.07,76.21,80,28,4.03
410,Mezhova,48.25,36.73,57.43,98,10,7.94
411,Mazyr,52.05,29.25,56.7,90,0,4.68
412,Fukayachō,36.2,139.28,73.06,92,100,3.49
413,Saint-Raymond,45.47,-73.61,76.24,65,20,6.93
414,Avera,33.19,-82.53,81.93,78,40,6.93
415,Iquitos,-3.75,-73.25,76.6,78,55,1.97
416,Lebu,-37.62,-73.65,53.31,84,63,20.49
417,Pozzallo,36.73,14.85,69.76,88,0,1.12
418,Kuril'sk,45.23,147.88,63.64,75,9,5.32
419,Port Moresby,-9.44,147.18,82.4,74,75,17.22
420,Antalaha,-14.9,50.28,67.3,76,42,12.88
421,Hobyo,5.35,48.53,77.05,71,95,27.49
422,Verkhniy Avzyan,53.53,57.54,66.88,74,53,2.77
423,Vega de Alatorre,20.03,-96.63,81.45,79,0,8.48
424,Fray Bentos,-33.13,-58.3,54.0,90,100,1.99
425,Yarkovo,57.4,67.08,73.96,70,33,4.68
426,Luanda,-8.84,13.23,68.0,94,18,3.36
427,Khorramshahr,30.44,48.17,93.2,30,0,6.93
428,Bafut,6.08,10.1,61.92,94,100,1.19
429,Sayyan,15.17,44.32,63.39,56,80,2.15
430,Sandovo,58.46,36.41,52.48,93,92,6.33
431,Santa Isabel,-23.32,-46.22,61.92,93,0,3.36
432,Posse,-14.09,-46.37,66.81,53,0,8.25
433,Shiyan,32.65,110.78,80.22,70,24,2.68
434,Kalmunai,7.42,81.82,83.44,70,98,4.54
435,Acoyapa,11.97,-85.17,76.19,86,39,7.34
436,Saint Anthony,45.02,-93.22,82.85,66,1,20.8
437,Beloha,-25.17,45.05,58.1,86,0,6.22
438,Maumere,-8.62,122.21,82.69,65,9,3.44
439,Constitución,-35.33,-72.42,56.55,83,76,21.99
440,Lüderitz,-26.65,15.16,60.8,31,0,2.24
441,Verkhnyaya Sinyachikha,57.98,61.67,71.01,87,73,3.06
442,The Valley,18.22,-63.06,81.79,74,20,5.82
443,Rehoboth,-23.32,17.08,35.85,76,0,4.29
444,Sydney,-33.87,151.21,60.31,67,75,5.82
445,Yecla,38.61,-1.11,73.67,83,0,1.99
446,Launceston,-41.45,147.17,50.0,81,90,12.75
447,Sanmenxia,34.77,111.18,78.93,58,100,4.34
448,Clarence Town,-32.58,151.78,60.94,77,40,6.93
449,Barreirinhas,-2.75,-42.83,76.37,85,0,4.36
450,Al Bardīyah,31.76,25.09,72.46,86,0,10.51
451,Snåase,64.25,12.38,49.48,86,98,1.23
452,Recco,44.36,9.14,66.78,78,20,5.82
453,Kinkala,-4.36,14.76,67.73,84,77,8.28
454,Chiredzi,-21.05,31.67,49.93,90,0,1.54
455,Vavuniya,8.75,80.5,79.7,78,100,3.27
456,Alihe,50.57,123.72,81.43,55,100,5.35
457,Qinhuangdao,39.93,119.59,76.91,77,75,11.41
458,Kyra,49.58,111.98,61.77,51,100,7.11
459,Tsimmerbude,54.67,20.13,55.4,93,0,4.47
460,Coyhaique,-45.58,-72.07,32.0,86,90,0.58
461,Satipo,-11.25,-74.64,71.55,75,80,0.92
462,Bruneck,46.8,11.94,53.6,93,75,2.24
463,San Vicente,-26.62,-54.13,63.73,85,0,4.68
464,Shëngjin,41.81,19.59,68.0,94,75,1.12
465,Acapulco de Juárez,16.86,-99.89,84.2,74,20,6.93
466,Meulaboh,4.14,96.13,79.07,82,85,2.06
467,Rabo de Peixe,37.8,-25.58,68.0,82,75,8.05
468,Basoko,1.24,23.62,71.67,92,100,1.72
469,Karaman Province,37.08,33.25,63.63,70,0,6.26
470,Escanaba,45.75,-87.06,72.52,88,1,5.82
471,Aklavik,68.22,-135.01,64.4,52,75,12.75
472,Den Helder,52.96,4.76,58.42,87,75,4.7
473,Bela,25.93,81.98,89.91,64,46,3.31
474,Contamana,-7.33,-75.02,74.5,82,1,0.89
475,Kidal,18.44,1.41,89.94,35,0,14.58
476,Vao,-22.67,167.48,69.51,68,2,13.67
477,Saint-Pierre,-21.34,55.48,57.92,72,75,10.29
478,Lang Son,21.83,106.73,86.18,67,100,11.3
479,Dunedin,-45.87,170.5,46.99,77,98,32.01
480,Bulgan,48.81,103.53,61.79,58,56,4.54
481,Port Macquarie,-31.43,152.92,64.99,70,16,11.05
482,Noyabrsk,63.2,75.45,60.3,60,73,16.22
483,Forsytheganj,52.63,29.73,55.96,94,54,4.81
484,Haimen,23.19,116.61,91.4,59,40,6.71
485,Saryozek,44.36,77.98,79.77,28,100,5.88
486,Mayumba,-3.43,10.66,69.53,92,41,0.89
487,Želiezovce,48.05,18.65,58.93,90,100,3.0
488,Palora,-1.7,-77.93,63.39,95,7,3.4
489,Lichinga,-13.31,35.24,47.89,99,37,12.15
490,High Level,58.52,-117.14,60.8,87,75,5.82
491,Naze,28.37,129.48,81.48,94,75,5.82
492,Paita,-5.09,-81.11,62.24,85,0,13.44
493,Souillac,-20.52,57.52,69.8,68,40,14.99
494,Ambilobe,-13.2,49.05,63.34,81,0,3.51
495,Guangming,45.33,122.78,86.4,44,100,18.48
496,Acajutla,13.59,-89.83,79.0,77,2,3.0
497,Gurupi,-11.73,-49.07,72.97,44,0,5.5
498,Elizabeth City,36.29,-76.25,82.85,79,1,10.29
499,Poum,-20.23,164.02,70.9,58,0,7.81
500,Djibouti,11.5,42.5,98.6,25,75,3.36
501,Biak,-0.91,122.88,82.35,69,3,5.19
502,Bud,39.45,-86.18,77.47,74,1,4.7
503,Atar,20.52,-13.05,93.34,27,32,8.05
504,Cap Malheureux,-19.98,57.61,66.0,75,3,3.0
505,Odesa,46.48,30.73,66.2,55,0,6.71
506,Gwanda,-20.93,29.0,43.11,83,0,3.65
507,Rio Rancho,35.23,-106.66,84.16,30,1,17.22
508,Litovko,49.24,135.17,75.97,87,100,2.24
509,Shakawe,-18.37,21.85,42.22,64,0,4.56
510,Yumen,40.28,97.2,74.7,31,0,12.75
511,Iisalmi,63.56,27.19,60.8,87,93,3.36
512,Chu,43.6,73.76,84.11,29,83,12.86
513,Sola,-13.88,167.55,80.33,81,100,11.3
514,Alzamay,55.56,98.66,55.76,55,90,9.75
515,Ashland,40.82,-82.27,74.73,60,1,3.56
516,Bilibino,68.05,166.44,63.84,58,59,10.83
517,Churapcha,62.0,132.43,89.87,37,32,11.3
518,Whitehorse,60.72,-135.05,66.83,34,75,18.34
519,Dwārka,22.24,68.97,83.55,86,0,12.8
520,Ust-Maya,60.42,134.53,85.26,47,0,8.72
521,Santa Maria,-29.68,-53.81,60.24,95,46,4.81
522,Morondava,-20.28,44.28,66.83,57,0,14.9
523,Nizhnevartovsk,60.93,76.55,64.4,72,0,8.95
524,Santiago del Estero,-27.8,-64.26,65.37,65,0,6.04
525,Chokwé,-24.53,32.98,53.2,90,0,3.56
526,Igrim,63.19,64.42,66.99,93,97,2.75
527,Cockburn Town,21.46,-71.14,83.57,78,0,17.34
528,Chone,-0.68,-80.1,74.46,83,99,3.15
529,Sibu,2.3,111.82,79.74,78,40,2.24
530,Saint-Joseph,-21.37,55.62,57.61,72,75,10.29
531,Banda Aceh,5.56,95.32,82.67,70,99,3.71
532,Dryden,49.78,-92.75,75.2,57,75,9.17
533,Riberalta,-10.98,-66.1,75.25,54,0,1.12
534,San Roque,36.21,-5.38,73.4,88,0,11.41
535,Raudeberg,61.99,5.14,55.18,82,43,13.87
536,Evanston,42.04,-87.69,80.87,58,40,6.93
537,Alto Araguaia,-17.31,-53.22,67.17,44,0,4.36
538,Bongandanga,1.5,21.05,69.78,94,98,1.86
539,Marzuq,14.4,46.47,85.26,30,100,5.06
540,Lloydminster,53.28,-110.0,66.2,72,75,9.17
541,Megion,61.03,76.11,64.4,72,0,8.95
542,Kamena Vourla,38.78,22.79,68.0,75,0,1.99
543,Fonte Boa,-2.5,-66.27,72.91,97,100,2.21
544,Havre-St-Pierre,50.23,-63.6,60.8,82,90,5.82
545,Crato,-7.23,-39.41,70.02,73,0,11.01
546,Moju,-1.88,-48.77,78.8,83,75,6.93
547,Coyote,25.7,-103.27,82.51,39,75,18.34
548,Chara,56.91,118.26,56.88,80,100,2.73
549,Pangody,65.85,74.49,53.78,85,100,10.71
550,Marsh Harbour,26.54,-77.06,82.78,80,100,17.54
551,Zabid,14.2,43.32,90.75,36,95,3.11
552,Coos Bay,43.37,-124.22,61.7,77,1,24.16
