,City,Country,Latitude,Longitude,Temp,Humidity,Cloudiness,Wind Speed
0,Andenes,NO,69.31,16.12,59.0,77,75,2.24
1,Dukat,RU,62.55,155.55,48.63,79,0,2.55
2,Hilo,US,19.73,-155.09,70.7,73,90,3.36
3,Busselton,AU,-33.65,115.33,51.71,91,94,9.22
4,Shache,CN,38.42,77.24,90.9,14,97,8.77
5,Vila,PT,42.03,-8.16,84.58,45,0,3.36
6,Ribeira Grande,PT,38.52,-28.7,73.4,60,75,4.7
7,Barrow,US,71.29,-156.79,35.6,93,90,10.29
8,Iquique,CL,-20.22,-70.14,59.0,62,75,3.36
9,Hong Kong,HK,22.29,114.16,84.94,74,100,8.01
10,Rikitea,PF,-23.12,-134.97,68.32,61,98,13.42
11,Ushuaia,AR,-54.8,-68.3,24.8,85,20,3.36
12,Sørland,NO,67.67,12.69,57.2,82,75,8.05
13,Pisco,PE,-13.7,-76.22,59.43,93,90,1.12
14,Bredasdorp,ZA,-34.53,20.04,66.2,59,0,8.05
15,Rio Grande,BR,-32.03,-52.1,70.59,82,6,4.7
16,Nikolskoye,RU,59.7,30.79,77.83,50,40,6.71
17,Aksarka,RU,66.56,67.8,68.52,45,98,5.59
18,Qaanaaq,GL,77.48,-69.36,45.36,82,97,2.75
19,Mataura,NZ,-46.19,168.86,43.72,92,100,4.81
20,Tongliao,CN,43.61,122.27,79.65,29,99,10.31
21,Anqiu,CN,36.43,119.19,75.52,73,0,9.91
22,Blagoveshchenka,RU,52.83,79.87,82.83,46,0,8.59
23,Tuatapere,NZ,-46.13,167.68,44.1,89,100,6.93
24,Tamsweg,AT,47.13,13.81,73.0,63,51,1.99
25,Egvekinot,RU,66.32,-179.17,40.62,80,19,7.78
26,Kiunga,PG,-6.12,141.29,73.99,98,60,3.42
27,East London,ZA,-33.02,27.91,77.0,29,0,5.82
28,Punta Arenas,CL,-53.15,-70.92,28.2,92,75,3.36
29,Ereymentau,KZ,51.62,73.1,82.85,40,82,7.56
30,Severo-Kuril'sk,RU,50.68,156.12,49.96,90,43,7.43
31,Salina,US,38.84,-97.61,72.86,88,20,6.93
32,Vaini,TO,-21.2,-175.2,71.6,88,75,13.87
33,Mossamedes,AO,-15.2,12.15,81.73,29,1,11.45
34,Olafsvik,IS,64.89,-23.71,49.86,72,6,5.57
35,Hithadhoo,MV,-0.6,73.08,84.09,77,98,13.4
36,Albany,US,42.6,-73.97,78.1,62,97,6.51
37,Yamada,JP,39.47,141.95,67.21,91,100,4.92
38,Zelhem,NL,52.01,6.35,70.77,40,20,12.75
39,Makkah al Mukarramah,SA,21.43,39.83,94.37,36,64,10.51
40,Dunedin,NZ,-45.87,170.5,48.09,72,100,3.0
41,Khatanga,RU,71.97,102.5,58.06,59,56,8.66
42,Tasiilaq,GL,65.61,-37.64,42.8,87,20,10.29
43,Najrān,SA,17.49,44.13,93.2,41,40,11.41
44,Jamestown,US,42.1,-79.24,69.8,88,90,9.17
45,Rawson,AR,-43.3,-65.1,45.7,83,96,10.51
46,Benemérito de las Américas,MX,16.52,-90.64,74.97,91,70,1.03
47,Mahibadhoo,MV,3.78,72.97,84.07,76,100,18.99
48,Cape Town,ZA,-33.93,18.42,67.03,55,0,5.82
49,Alice Springs,AU,-23.7,133.88,57.2,41,40,8.05
50,Constitución,CL,-35.33,-72.42,53.2,85,96,12.01
51,Puerto Ayora,EC,-0.74,-90.35,66.99,96,79,5.01
52,Chokurdakh,RU,70.63,147.92,66.0,50,27,10.42
53,Longyearbyen,SJ,78.22,15.64,44.6,87,75,3.36
54,Kutum,SD,14.2,24.67,78.69,53,91,10.54
55,Hobart,AU,-42.88,147.33,42.6,83,20,9.17
56,Onega,RU,63.91,38.14,76.1,37,0,2.33
57,Hermanus,ZA,-34.42,19.23,64.0,69,0,5.01
58,Leningradskiy,RU,69.38,178.42,36.27,88,0,6.96
59,Songea,TZ,-10.68,35.65,74.03,26,0,7.45
60,Avarua,CK,-21.21,-159.78,73.4,88,100,17.22
61,Atar,MR,20.52,-13.05,101.91,24,0,8.81
62,Grindavik,IS,63.84,-22.43,50.0,76,75,3.36
63,Bluff,NZ,-46.6,168.33,48.42,89,100,7.99
64,Sohna,IN,28.25,77.07,89.6,62,40,15.41
65,Salinas,US,36.68,-121.66,58.1,77,90,0.34
66,Saint George,US,37.1,-113.58,79.25,19,1,5.82
67,Cidreira,BR,-30.18,-50.21,68.99,73,0,2.93
68,Lebu,CL,-37.62,-73.65,50.49,89,100,8.63
69,Buraidah,SA,26.33,43.98,113.0,12,56,19.46
70,Soufrière,LC,13.86,-61.06,84.2,79,75,14.99
71,Leh,IN,34.17,77.58,59.07,42,99,1.5
72,Cruzeiro do Sul,BR,-29.51,-51.99,69.67,79,100,5.86
73,Cairns,AU,-16.92,145.77,69.8,73,90,10.29
74,Port Lincoln,AU,-34.73,135.87,51.3,65,20,2.62
75,Salalah,OM,17.02,54.09,82.4,88,75,11.41
76,Juntas,CR,10.28,-84.96,78.03,79,35,2.95
77,Pevek,RU,69.7,170.31,45.73,58,0,1.79
78,Myingyan,MM,21.47,95.38,91.4,55,75,8.05
79,Kapaa,US,22.08,-159.32,79.12,74,90,17.22
80,Mbengwi,CM,6.02,10.0,72.03,76,97,4.94
81,Soledad,CO,10.92,-74.76,80.6,94,75,5.82
82,Armidale,AU,-30.52,151.65,32.74,90,87,1.63
83,São Filipe,CV,14.9,-24.5,77.74,81,21,8.08
84,Bubaque,GW,11.28,-15.83,79.95,83,31,16.98
85,Lata,PT,40.16,-8.33,80.94,57,29,8.05
86,Dikson,RU,73.51,80.55,41.34,89,100,13.69
87,Galveston,US,29.37,-94.97,80.17,88,20,10.29
88,Murgab,TM,37.5,61.97,107.6,11,20,11.41
89,Samfya,ZM,-11.36,29.56,76.86,29,0,4.27
90,Bethel,US,41.37,-73.41,76.24,78,75,4.81
91,Butaritari,KI,3.07,172.79,82.69,69,100,8.75
92,Nanortalik,GL,60.14,-45.24,50.86,64,8,4.03
93,Sola,VU,-13.88,167.55,76.37,79,89,14.63
94,Port Alfred,ZA,-33.59,26.89,70.66,35,0,8.52
95,New Norfolk,AU,-42.78,147.06,43.0,63,100,1.99
96,Mana,GF,5.66,-53.78,83.07,67,18,5.7
97,Trincomalee,LK,8.57,81.23,83.62,80,99,15.21
98,Mahébourg,MU,-20.41,57.7,71.6,60,75,11.41
99,Loa Janan,ID,-0.58,117.09,75.58,97,81,2.33
100,Freeport,US,40.66,-73.58,83.64,74,40,4.7
101,Alghero,IT,40.56,8.32,86.47,43,20,10.29
102,Bilibino,RU,68.05,166.44,52.9,62,0,2.73
103,Hokitika,NZ,-42.72,170.97,52.5,89,100,13.49
104,Half Moon Bay,US,37.46,-122.43,58.08,87,90,2.93
105,Atuona,PF,-9.8,-139.03,79.5,76,26,15.41
106,Caloundra,AU,-26.8,153.13,53.01,90,100,10.6
107,Lavrentiya,RU,65.58,-171.0,43.2,82,78,8.57
108,Beringovskiy,RU,63.05,179.32,44.02,73,0,9.01
109,Richards Bay,ZA,-28.78,32.04,76.59,36,0,11.5
110,Saquena,PE,-4.67,-73.52,75.9,90,9,0.83
111,Halifax,CA,44.65,-63.57,67.62,94,75,16.11
112,Ibrā’,OM,22.69,58.53,100.2,34,67,14.7
113,Geraldton,AU,-28.77,114.6,50.0,87,0,5.82
114,Skjervøy,NO,70.03,20.97,59.0,77,40,11.41
115,Lubango,AO,-14.92,13.49,68.0,20,0,9.17
116,Namie,JP,37.48,141.0,70.0,98,100,3.67
117,Laishevo,RU,55.4,49.55,77.0,41,40,8.95
118,Yangi Marg`ilon,UZ,40.43,71.72,96.8,12,35,6.93
119,Luba,GQ,3.46,8.55,82.4,83,40,9.17
120,Pitimbu,BR,-7.47,-34.81,75.2,94,75,11.41
121,Havre-St-Pierre,CA,50.23,-63.6,66.2,93,90,4.7
122,Trier,DE,49.76,6.64,73.26,56,40,10.29
123,Hazorasp,UZ,41.32,61.07,105.8,16,23,6.93
124,Xiongzhou,CN,25.12,114.3,82.76,66,100,2.62
125,Narsaq,GL,60.92,-46.05,60.8,55,40,3.36
126,Faanui,PF,-16.48,-151.75,77.43,84,28,23.87
127,Kushmurun,KZ,52.45,64.63,88.43,37,100,7.58
128,Kismayo,SO,-0.36,42.55,79.79,67,100,21.23
129,Port Elizabeth,ZA,-33.92,25.57,68.0,64,0,13.87
130,Grand Gaube,MU,-20.01,57.66,71.6,60,75,11.41
131,Provideniya,RU,64.38,-173.3,46.74,71,74,2.08
132,Vostok,RU,46.49,135.88,62.91,85,100,4.85
133,Vestmannaeyjar,IS,63.44,-20.27,51.8,81,5,6.93
134,Saint-Philippe,RE,-21.36,55.77,70.11,56,81,24.16
135,Dubti,ET,11.74,41.09,102.72,21,4,9.98
136,Arraial do Cabo,BR,-22.97,-42.03,75.2,73,0,12.75
137,Saint-Joseph,RE,-21.37,55.62,73.4,56,67,24.16
138,Thompson,CA,55.74,-97.86,53.6,87,40,3.62
139,Shingū,JP,33.73,135.98,75.72,92,100,3.83
140,Stornoway,GB,58.21,-6.39,57.2,67,40,8.05
141,Upernavik,GL,72.79,-56.15,50.36,49,35,4.85
142,Inuvik,CA,68.35,-133.72,46.4,81,75,3.36
143,Jiwani,PK,25.05,61.74,85.64,82,29,23.13
144,Lokosovo,RU,61.13,74.82,65.1,54,88,13.44
145,Nouakchott,MR,18.09,-15.98,84.2,66,75,13.87
146,Luanda,AO,-8.84,13.23,75.42,66,1,14.05
147,Faya,SA,18.39,42.45,74.3,38,75,12.75
148,Kieta,PG,-6.22,155.63,77.72,78,1,5.35
149,Nokaneng,BW,-19.67,22.27,79.16,17,0,10.16
150,Sena Madureira,BR,-9.07,-68.66,79.93,70,96,1.92
151,Rauma,FI,61.13,21.51,69.8,77,20,6.93
152,Hofn,IS,64.25,-15.21,55.4,62,40,6.93
153,Mahon,ES,39.89,4.27,80.6,65,20,8.05
154,Portland,US,45.52,-122.68,60.96,77,1,2.89
155,Ilulissat,GL,69.22,-51.1,55.4,43,20,3.36
156,Lichuan,CN,30.3,108.85,64.02,94,88,3.91
157,Cherskiy,RU,68.75,161.3,57.87,61,46,1.59
158,Sturgis,US,41.8,-85.42,69.8,94,1,4.7
159,Verāval,IN,20.9,70.37,85.19,77,54,14.81
160,Markova,UA,48.68,24.41,73.2,69,75,4.47
161,Wattegama,LK,6.8,81.48,84.2,74,40,6.93
162,Kaabong,UG,3.48,34.15,73.49,60,56,4.81
163,Beloha,MG,-25.17,45.05,71.44,52,0,15.88
164,Castro,BR,-24.79,-50.01,65.14,57,0,6.6
165,Podstepki,RU,53.52,49.14,78.8,39,40,6.71
166,Tuktoyaktuk,CA,69.45,-133.04,40.08,92,100,10.58
167,Saskylakh,RU,71.92,114.08,58.06,55,100,6.17
168,Sulat,PH,11.81,125.45,81.5,83,100,5.26
169,Zhigansk,RU,66.77,123.37,61.27,94,100,10.11
170,Codrington,AU,-38.27,141.97,49.86,78,67,9.89
171,Northam,GB,51.03,-4.22,65.44,57,0,3.0
172,Sakakah,SA,29.97,40.21,114.8,5,0,4.7
173,Bathsheba,BB,13.22,-59.52,84.2,74,40,17.22
174,Edd,ER,13.93,41.69,94.5,48,6,19.44
175,Sühbaatar,MN,50.23,106.21,62.96,60,0,3.33
176,Casas Grandes,MX,30.37,-107.95,69.28,68,56,2.42
177,Biak,ID,-0.91,122.88,76.86,82,17,4.92
178,Brigantine,US,39.41,-74.36,84.4,79,1,10.29
179,Manchester,GB,53.48,-2.24,61.74,59,40,11.41
180,Tanout,NE,14.97,8.89,97.9,28,0,13.11
181,Ginir,ET,7.13,40.7,69.66,63,75,6.53
182,Gorin,RU,51.2,136.67,71.22,82,100,3.98
183,Busca,IT,44.52,7.47,83.14,57,9,4.7
184,North Ridgeville,US,41.39,-82.02,72.81,83,75,5.82
185,Yumen,CN,40.28,97.2,84.7,14,100,8.9
186,Bintulu,MY,3.17,113.03,80.29,94,20,3.36
187,Cabo San Lucas,MX,22.89,-109.91,79.14,69,5,12.75
188,Esperance,AU,-33.87,121.9,53.6,76,90,5.82
189,Coolum Beach,AU,-26.53,153.1,53.01,90,100,9.28
190,Caçador,BR,-26.78,-51.02,65.43,64,0,4.92
191,Ulladulla,AU,-35.35,150.47,41.99,57,0,16.11
192,Avera,US,33.19,-82.53,77.34,94,1,6.93
193,Tiksi,RU,71.69,128.87,48.65,83,100,12.8
194,Guarda,PT,40.54,-7.27,91.0,22,17,5.99
195,Svetlaya,RU,46.54,138.33,60.31,89,100,5.97
196,Kaitangata,NZ,-46.28,169.85,48.99,72,100,3.0
197,Qaqortoq,GL,60.72,-46.03,60.8,55,40,3.36
198,Phalombe,MW,-15.81,35.65,72.23,43,9,5.41
199,Werda,BW,-25.27,23.28,74.77,18,0,7.78
200,Souillac,MU,-20.52,57.52,71.6,60,75,11.41
201,Cambará,BR,-23.05,-50.07,68.85,59,0,5.77
202,Bridlington,GB,54.08,-0.19,61.18,51,87,8.05
203,Ponta do Sol,PT,32.67,-17.1,70.77,64,0,1.36
204,Malabo,GQ,3.75,8.78,82.4,83,40,9.17
205,Ixtapa,MX,20.7,-105.2,78.8,94,40,2.95
206,Igrim,RU,63.19,64.42,70.11,42,0,8.68
207,Port Blair,IN,11.67,92.75,82.96,76,100,5.91
208,Gamba,GA,-2.65,10.0,76.42,71,94,8.61
209,Harper,LR,4.38,-7.72,79.32,81,100,11.83
210,Rome,US,43.21,-75.46,76.53,78,75,6.93
211,Lüderitz,NA,-26.65,15.16,73.94,22,0,9.22
212,Franklin,US,39.97,-83.02,74.98,83,40,3.29
213,Diego de Almagro,CL,-26.37,-70.05,60.13,38,100,0.58
214,Kahului,US,20.89,-156.47,76.46,54,75,16.11
215,Lagoa,PT,39.05,-27.98,68.72,71,6,2.59
216,Frolovo,RU,49.77,43.66,84.99,32,64,5.99
217,Lorengau,PG,-2.02,147.27,82.47,77,95,8.25
218,Carbonia,IT,39.17,8.52,85.59,41,40,13.87
219,Ukiah,US,39.15,-123.21,55.22,82,1,4.7
220,Medina del Campo,ES,41.31,-4.91,89.44,31,0,4.7
221,Dingle,PH,11.0,122.67,78.49,81,21,5.35
222,Hualmay,PE,-11.1,-77.61,60.62,80,100,6.02
223,Coyhaique,CL,-45.58,-72.07,35.6,93,90,3.36
224,Rabo de Peixe,PT,37.8,-25.58,73.4,53,75,10.29
225,Lincoln,US,40.8,-96.67,67.66,93,90,11.41
226,Chitral,PK,35.85,71.79,84.74,19,23,5.91
227,Kavieng,PG,-2.57,150.8,82.63,73,83,8.61
228,Ambulu,ID,-8.35,113.61,76.41,87,80,5.26
229,Ossora,RU,59.24,163.07,51.33,92,100,9.91
230,Ternate,ID,0.8,127.4,80.8,77,0,3.87
231,Caravelas,BR,-17.71,-39.25,76.23,79,0,8.81
232,Katsuura,JP,35.13,140.3,76.57,94,75,8.05
233,San Patricio,MX,19.22,-104.7,77.0,88,40,6.93
234,Zhangye,CN,38.93,100.45,79.93,16,41,2.3
235,Puerto Escondido,MX,15.85,-97.07,77.0,73,40,8.05
236,Port Hardy,CA,50.7,-127.42,55.45,90,38,6.71
237,Eyl,SO,7.98,49.82,90.36,39,19,28.03
238,Lerwick,GB,60.15,-1.15,57.2,71,20,9.17
239,Puerto del Rosario,ES,28.5,-13.86,78.8,74,20,17.22
240,Aleksandrov Gay,RU,50.15,48.57,88.25,25,8,6.98
241,Inta,RU,66.03,60.17,73.18,39,0,5.5
242,Jalu,LY,29.03,21.55,97.11,21,0,10.25
243,Luyang,CN,27.62,110.1,70.7,95,100,0.96
244,Sobolevo,RU,54.43,31.9,71.38,73,97,7.25
245,Shreveport,US,32.53,-93.75,76.24,94,40,3.36
246,Thinadhoo,MV,0.53,72.93,83.66,79,100,17.47
247,Saint-François,FR,46.42,3.91,87.8,29,54,4.7
248,Caçu,BR,-18.56,-51.13,78.19,39,0,12.91
249,Ostrovnoy,RU,68.05,39.51,75.67,44,14,6.26
250,Isla Vista,US,34.41,-119.86,59.95,82,90,5.82
251,Pedasí,PA,7.53,-80.03,79.83,82,100,7.18
252,Rāvar,IR,31.27,56.81,97.2,9,0,20.74
253,Sur,OM,22.57,59.53,90.95,59,28,1.63
254,Paamiut,GL,61.99,-49.67,47.68,74,100,7.63
255,Shumskiy,RU,54.83,99.13,61.83,67,71,4.23
256,Bella Vista,US,36.43,-94.23,74.39,88,1,4.7
257,Elizabeth City,US,36.29,-76.25,83.39,83,1,11.41
258,Tūkrah,LY,32.53,20.58,81.95,58,0,15.55
259,Yeniseysk,RU,58.45,92.17,60.62,94,100,7.07
260,Olinda,BR,-8.01,-34.86,80.6,78,40,13.87
261,Manzhouli,CN,49.6,117.43,58.32,62,60,10.89
262,Saint Anthony,US,45.02,-93.22,64.44,88,1,3.22
263,Torbay,CA,47.67,-52.73,69.06,72,75,11.41
264,Talnakh,RU,69.49,88.4,60.8,48,40,13.42
265,Lufilufi,WS,-13.87,-171.6,80.01,88,97,5.01
266,Mudgee,AU,-32.59,149.59,40.21,80,0,9.17
267,Derzhavīnsk,KZ,51.1,66.32,89.46,21,100,5.39
268,Kununurra,AU,-15.77,128.73,69.8,29,0,1.12
269,Motygino,RU,58.18,94.76,57.76,83,100,4.72
270,Trebisacce,IT,39.87,16.53,88.03,41,40,6.93
271,Opuwo,NA,-18.06,13.84,78.49,18,0,12.64
272,Saint-Pierre,RE,-21.34,55.48,69.04,56,5,24.16
273,Quelimane,MZ,-17.88,36.89,78.8,50,40,10.29
274,São João da Barra,BR,-21.64,-41.05,73.4,83,20,2.24
275,Yong’an,CN,39.7,113.69,70.84,51,100,6.06
276,Alta Floresta,BR,-9.88,-56.09,82.18,40,0,6.87
277,Katherine,AU,-14.47,132.27,66.2,34,90,4.7
278,Quryq,KZ,43.2,51.65,95.85,22,0,12.88
279,Makakilo City,US,21.35,-158.09,77.79,61,1,8.05
280,Vao,NC,-22.67,167.48,68.68,74,11,15.55
281,Province of Groningen,NL,53.25,6.75,66.13,52,75,11.41
282,Funchal,PT,32.63,-16.9,70.61,60,40,14.99
283,Ta Khmau,KH,11.48,104.95,80.6,83,40,2.24
284,Belaya Gora,RU,68.53,146.42,68.38,52,81,11.27
285,Rochegda,RU,62.8,43.25,76.71,39,70,6.2
286,Winnemucca,US,40.97,-117.74,69.8,28,1,8.05
287,Chui,UY,-33.7,-53.46,67.06,80,100,7.49
288,Roald,NO,62.58,6.13,57.09,67,20,18.34
289,Banjar,ID,-8.19,114.97,80.6,88,20,10.29
290,Kwinana,AU,-32.25,115.77,51.22,81,55,8.05
291,Ulaanbaatar,MN,47.91,106.88,73.4,28,20,2.24
292,Sistranda,NO,63.73,8.83,57.09,76,75,8.05
293,Tegul'det,RU,57.31,88.17,71.06,89,63,2.15
294,Hervey Bay,AU,-25.3,152.85,59.0,86,0,4.0
295,Kingman,US,35.19,-114.05,81.73,18,1,5.82
296,São Gabriel da Cachoeira,BR,-0.13,-67.09,73.4,94,7,2.24
297,Khilok,RU,51.37,110.47,52.23,59,0,4.81
298,Esmeraldas,BR,-19.76,-44.31,66.79,68,40,9.17
299,Āmlāgora,IN,22.83,87.33,82.18,87,100,5.19
300,Jiazi,CN,22.88,116.07,82.87,79,100,3.94
301,Piteå,SE,65.32,21.48,66.2,82,85,12.75
302,Boa Vista,BR,2.82,-60.67,77.0,88,75,1.12
303,Mount Gambier,AU,-37.83,140.77,42.8,93,40,5.82
304,Cumberland,US,35.05,-78.87,80.44,78,1,8.05
305,Leiyang,CN,26.4,112.86,77.86,93,100,2.59
306,Kuytun,RU,54.34,101.5,57.47,57,97,1.21
307,Sokoni,TZ,-6.43,39.55,80.74,65,75,11.41
308,Redwater,US,33.36,-94.25,76.46,88,1,5.82
309,Sinnamary,GF,5.38,-52.95,83.03,69,25,6.87
310,Bahía Blanca,AR,-38.72,-62.27,51.17,79,100,12.59
311,San Fernando del Valle de Catamarca,AR,-28.47,-65.79,57.99,68,81,1.01
312,Barra de Tecoanapa,MX,16.52,-98.75,77.63,88,90,3.13
313,Ejido Ixcatepec,MX,21.2,-97.95,73.31,92,20,2.44
314,Liku,ID,-0.73,119.89,76.44,84,29,0.96
315,Lompoc,US,34.64,-120.46,56.79,87,90,5.82
316,Goedereede,NL,51.82,3.98,67.53,62,0,5.01
317,Portsmouth,GB,50.8,-1.09,69.64,37,94,5.82
318,Port Hedland,AU,-20.32,118.57,69.8,35,0,5.82
319,Kasongo-Lunda,CD,-6.47,16.82,95.32,13,76,3.31
320,Klaksvík,FO,62.23,-6.59,51.8,87,94,10.29
321,Krasnosel'kup,RU,65.7,82.47,64.54,53,100,13.6
322,Huanren,CN,41.26,125.37,65.37,81,0,2.59
323,Ratnagiri,IN,16.98,73.3,83.61,78,100,5.19
324,Gravdal,NO,68.12,13.5,57.2,82,75,8.05
325,Flinders,AU,-34.58,150.86,50.85,59,0,8.99
326,Juruti,BR,-2.15,-56.09,84.15,59,100,4.92
327,Datong,CN,40.09,113.29,78.62,34,100,8.86
328,Yunyang,CN,33.45,112.71,76.35,69,100,5.28
329,Pundaguitan,PH,6.37,126.17,84.33,69,10,6.69
330,Ahipara,NZ,-35.17,173.17,55.74,93,30,4.45
331,Mogadishu,SO,2.04,45.34,82.4,65,40,24.16
332,Saint Paul Harbor,US,57.79,-152.41,57.2,76,1,3.36
333,Verkhniye Tatyshly,RU,56.29,55.86,73.31,75,42,6.6
334,Paranaíba,BR,-19.68,-51.19,75.22,48,0,8.75
335,Bambanglipuro,ID,-7.95,110.28,76.89,86,48,7.99
336,Westport,US,41.14,-73.36,80.11,83,20,4.7
337,Tromsø,NO,69.65,18.96,59.0,72,75,3.36
338,Carutapera,BR,-1.2,-46.02,81.88,79,74,7.72
339,Tautira,PF,-17.73,-149.15,71.29,88,75,3.36
340,Itaituba,BR,-4.28,-55.98,78.8,78,100,3.18
341,Carnarvon,AU,-24.87,113.63,60.8,82,0,8.05
342,Kruisfontein,ZA,-34.0,24.73,68.41,53,0,7.92
343,Bharatpur,IN,27.22,77.48,85.93,71,100,12.39
344,Antalaha,MG,-14.9,50.28,74.98,63,0,14.34
345,Madang,PG,-5.22,145.8,78.15,88,100,3.89
346,Amberley,US,39.2,-84.43,74.62,94,1,3.36
347,Kjøllefjord,NO,70.95,27.35,50.67,93,90,9.17
348,Bengkulu,ID,-3.8,102.27,80.51,87,100,10.11
349,Ourinhos,BR,-22.98,-49.87,68.41,59,0,6.42
350,Paraná,AR,-31.73,-60.52,67.69,75,95,2.77
351,Visby,SE,57.64,18.3,67.53,93,75,5.82
352,Puerto Quijarro,BO,-17.78,-57.77,80.82,36,0,4.56
353,Khani,GE,41.96,42.96,93.2,59,40,13.87
354,Vardø,NO,70.37,31.11,59.31,72,20,11.41
355,Vestmanna,FO,62.16,-7.17,51.8,87,93,10.29
356,Laas,IT,46.62,10.7,75.2,27,40,6.93
357,Monteagudo,BO,-19.82,-63.98,75.6,42,36,2.8
358,Yetkul',RU,54.82,61.59,80.6,57,40,11.18
359,Newark,US,40.74,-74.17,83.5,78,75,5.82
360,Khovd,MN,48.01,91.64,74.77,40,90,6.35
361,San Alberto,CO,7.76,-73.39,80.13,71,91,3.44
362,Shahr-e Bābak,IR,30.12,55.12,89.4,11,41,25.43
363,Seoul,KR,37.57,126.98,72.34,83,1,6.85
364,Vanimo,PG,-2.67,141.3,79.52,85,79,8.59
365,Nakamura,JP,32.98,132.93,76.95,90,100,1.03
366,Doha,QA,25.29,51.53,104.02,51,11,8.05
367,Panguna,PG,-6.32,155.48,66.51,98,0,1.88
368,Barcelona,ES,41.39,2.16,80.94,69,20,11.41
369,Hamilton,US,39.18,-84.53,74.7,94,1,3.36
370,Valparaíso,CL,-33.04,-71.63,51.8,87,75,4.7
371,Lexington,US,37.99,-84.48,75.78,83,1,5.82
372,Oranjemund,NA,-28.55,16.43,78.15,18,0,9.64
373,Nishihara,JP,26.18,127.76,82.78,83,20,5.82
374,Mandera,KE,3.94,41.87,90.95,29,10,21.32
375,Scarborough,GB,54.28,-0.4,59.41,68,77,1.99
376,Roebourne,AU,-20.78,117.13,70.83,48,0,14.99
377,Jacareacanga,BR,-6.22,-57.75,78.8,88,67,3.51
378,Olavarría,AR,-36.89,-60.32,56.84,92,100,4.9
379,George Town,MY,5.41,100.34,83.05,88,20,12.75
380,Bambous Virieux,MU,-20.34,57.76,71.6,60,75,11.41
381,Kavaratti,IN,10.57,72.64,82.18,80,100,28.12
382,Nouadhibou,MR,20.93,-17.03,84.2,58,6,5.82
383,Kashgar,CN,39.45,75.98,78.8,31,20,15.66
384,Kumul,CN,42.8,93.45,96.57,11,100,6.91
385,Juneau,US,58.3,-134.42,55.4,93,90,14.99
386,Pahrump,US,36.21,-115.98,79.83,17,1,3.36
387,Ajdabiya,LY,30.76,20.23,86.76,47,0,20.04
388,Mackenzie,CA,55.3,-123.17,50.0,93,1,2.24
389,Kure,JP,34.23,132.57,81.32,70,40,3.36
390,Kiryat Gat,IL,31.61,34.76,87.35,52,0,7.0
391,Assiut,EG,27.18,31.18,107.69,12,0,10.33
392,Bay Roberts,CA,47.6,-53.26,69.69,51,100,9.93
393,Zhicheng,CN,30.3,111.5,77.47,83,100,4.0
394,Muscat,OM,23.61,58.59,91.4,66,20,10.29
395,Arawa,PG,-6.21,155.54,75.65,81,0,3.6
396,Newala,TZ,-10.94,39.28,76.53,43,99,7.54
397,Kupang,ID,-10.17,123.58,75.2,64,20,3.36
398,Bilma,NE,18.69,12.92,109.26,10,0,14.56
399,Newport,GB,51.59,-3.0,64.51,51,40,8.05
400,Songjianghe,CN,42.19,127.48,62.28,97,67,2.28
401,Kalmunai,LK,7.42,81.82,84.56,71,100,17.6
402,Druzhba,UA,52.04,33.95,74.66,58,0,6.69
403,Novi Travnik,BA,44.17,17.66,73.2,56,75,6.93
404,Mahon,ES,39.89,4.27,80.6,65,20,8.05
405,Cusuna,HN,15.85,-85.23,78.82,78,0,2.77
406,Mangai,CD,-4.05,19.53,93.76,18,0,4.18
407,Port Augusta,AU,-32.5,137.77,50.0,87,75,5.82
408,Cabra,ES,37.47,-4.44,102.0,19,0,4.23
409,Sioux Lookout,CA,50.1,-91.92,59.0,82,75,9.17
410,Simpang,ID,-1.27,104.08,76.57,89,89,2.33
411,Iracoubo,GF,5.48,-53.2,83.21,68,1,4.88
412,Taksimo,RU,56.34,114.88,50.92,86,100,4.72
413,Carman,CA,49.5,-98.0,56.05,93,75,1.86
414,Deputatsky,RU,69.3,139.9,55.98,89,100,1.12
415,Maniitsoq,GL,65.42,-52.9,51.08,74,100,5.26
416,Guéret,FR,46.17,1.87,86.0,25,19,4.7
417,Lukovetskiy,RU,64.3,41.92,80.6,34,20,4.47
418,Oyama,JP,36.3,139.8,75.67,94,75,6.93
419,Los Llanos de Aridane,ES,28.66,-17.92,78.8,65,20,16.11
420,Rodrigues Alves,BR,-7.74,-72.65,78.17,75,0,1.66
421,Margate,GB,51.38,1.39,68.97,43,20,6.93
422,Port Macquarie,AU,-31.43,152.92,39.99,91,0,7.29
423,Mae Hong Son,TH,19.3,97.97,86.0,66,40,2.33
424,Swan Hill,AU,-35.34,143.55,44.38,83,15,5.97
425,Vangaindrano,MG,-23.35,47.6,68.86,62,66,3.87
426,Maputo,MZ,-25.97,32.59,75.09,50,40,10.29
427,Laguna,US,38.42,-121.42,57.79,82,1,10.29
428,Montrose,US,38.42,-108.27,61.5,42,1,8.05
429,Joué-lès-Tours,FR,47.35,0.67,80.6,44,87,6.93
430,Haines Junction,CA,60.75,-137.51,51.17,85,100,3.56
431,Gao,ML,16.64,1.64,99.73,26,98,3.47
432,Arlit,NE,18.74,7.39,104.99,18,0,8.66
433,Pīpār,IN,26.39,73.54,96.39,45,62,19.44
434,Rusape,ZW,-18.53,32.13,67.05,34,0,10.69
435,Kasempa,ZM,-13.46,25.83,73.2,33,61,8.16
436,Yar-Sale,RU,66.83,70.83,67.84,41,100,8.25
437,Jumla,NP,29.27,82.18,66.69,68,36,2.24
438,Taywarah,AF,33.35,64.42,71.89,21,0,27.25
439,‘Āhuimanu,US,21.44,-157.84,77.34,65,20,6.93
440,Sojat,IN,25.92,73.67,95.25,45,100,16.28
441,Tabas,IR,33.6,56.92,105.8,8,0,6.93
442,Asekeyevo,RU,53.57,52.8,75.6,62,0,9.19
443,Pyapon,MM,16.28,95.68,83.26,80,38,8.9
444,Bandarbeyla,SO,9.49,50.81,88.45,44,100,26.73
445,Masuguru,TZ,-11.37,38.42,87.73,25,62,4.97
446,Troitskoye,RU,52.98,84.68,76.78,67,0,3.44
447,Maceió,BR,-9.67,-35.74,78.8,78,75,18.34
448,Evensk,RU,61.95,159.23,53.82,77,0,3.56
449,Aswān,EG,24.09,32.91,111.22,10,0,8.7
450,Okhotsk,RU,59.38,143.3,56.39,88,96,3.85
451,Sarai,RU,53.75,41.02,72.48,64,0,9.98
452,Maxixe,MZ,-23.86,35.35,72.0,58,62,7.74
453,Yasinya,UA,48.28,24.36,74.43,57,19,0.51
454,Areosa,PT,41.72,-8.86,76.68,88,75,9.17
455,Joshīmath,IN,30.57,79.57,68.67,59,94,2.06
456,Manono,CD,-7.3,27.42,93.96,21,90,4.52
457,Sorong,ID,-0.88,131.25,80.11,78,25,4.38
458,Pandan,PH,14.05,124.17,82.63,80,1,5.17
459,Arman',RU,59.7,150.17,53.73,74,0,2.98
460,São Paulo de Olivença,BR,-3.38,-68.87,76.01,91,95,1.07
461,Vila Franca do Campo,PT,37.72,-25.43,73.4,53,75,10.29
462,Parrita,CR,9.52,-84.32,72.48,78,75,10.29
463,Halmstad,SE,56.67,12.86,64.4,59,0,18.34
464,Saldanha,ZA,-33.01,17.94,71.6,40,0,3.36
465,Vanavara,RU,60.34,102.28,58.12,63,72,2.51
466,Tezu,IN,27.92,96.17,73.99,86,100,4.25
467,Faro,PT,37.02,-7.93,87.8,43,30,8.05
468,San Miguel de Cozumel,MX,20.51,-86.95,77.7,94,20,2.86
469,Baracoa,CU,20.35,-74.5,83.73,70,53,5.21
470,Marsá Maţrūḩ,EG,31.35,27.25,84.76,47,0,13.27
471,Dondo,MZ,-19.61,34.74,75.2,53,20,14.99
472,Charlestown,AU,-32.95,151.67,50.72,59,0,7.65
473,Mananara,MG,-16.17,49.77,70.32,78,28,11.34
474,Atambua,ID,-9.11,124.89,68.29,87,10,4.92
475,Yeppoon,AU,-23.13,150.73,55.4,66,78,3.44
476,Manoel Urbano,BR,-8.84,-69.26,80.44,70,10,1.5
477,Baykit,RU,61.67,96.37,60.87,67,76,5.37
478,Hoa Binh,VN,20.81,105.34,78.8,88,100,8.05
479,Lishui,CN,28.46,119.91,79.7,83,100,2.8
480,Alugan,PH,12.22,125.48,82.81,82,100,7.58
481,Novaya Ladoga,RU,60.1,32.3,75.0,45,89,6.17
482,Emerald,AU,-23.53,148.17,64.38,29,34,13.87
483,Yārāda,IN,17.65,83.27,89.6,66,40,11.41
484,Wenling,CN,28.37,121.36,82.63,53,100,7.52
485,Cap Malheureux,MU,-19.98,57.61,72.0,52,33,7.0
486,Biltine,TD,14.53,20.92,87.4,44,94,12.21
487,Meulaboh,ID,4.14,96.13,80.31,84,100,4.25
488,Kyren,RU,51.68,102.14,59.5,70,13,1.1
489,Yerbogachën,RU,61.28,108.01,56.97,74,99,2.64
490,Pangnirtung,CA,66.15,-65.71,46.4,93,90,3.36
491,North Platte,US,41.12,-100.77,63.0,92,100,1.99
492,Adrar,MR,20.5,-10.07,105.67,14,0,7.43
493,Ishigaki,JP,24.34,124.16,85.14,76,0,8.68
494,Te Anau,NZ,-45.42,167.72,40.69,88,60,1.41
495,Toufen,TW,24.69,120.91,81.66,79,40,5.82
496,Nelson Bay,AU,-32.72,152.15,48.76,93,0,6.93
497,Konstantinovka,RU,49.62,127.98,62.71,90,0,6.62
498,Pemberton,CA,50.32,-122.8,63.73,60,0,1.34
499,Ust-Nera,RU,64.57,143.2,63.25,54,30,4.83
500,Nueva Imperial,CL,-38.73,-72.95,46.4,93,90,4.7
501,Abu Dhabi,AE,24.47,54.37,102.97,51,100,14.99
502,Luganville,VU,-15.53,167.17,69.24,71,9,4.32
503,Kintampo,GH,8.06,-1.73,80.46,71,99,7.47
504,Sitka,US,57.05,-135.33,57.2,93,90,11.41
505,Udachny,RU,66.42,112.4,55.4,93,90,6.71
506,Puerto Baquerizo Moreno,EC,-0.9,-89.6,67.84,88,31,14.38
507,Ejido,VE,8.55,-71.24,75.52,49,5,4.61
508,Touros,BR,-5.2,-35.46,77.0,88,75,8.05
509,Jagüey Grande,CU,22.53,-81.13,73.4,94,40,5.82
510,Durgapur,IN,23.48,87.32,81.93,84,100,12.28
511,Saiha,IN,22.48,92.97,72.86,93,100,1.36
512,Leeuwarden,NL,53.2,5.81,66.0,59,20,10.29
513,Bumba,CD,2.18,22.47,82.29,61,80,3.74
514,Tual,ID,-5.67,132.75,79.3,84,50,19.35
515,Adolfo López Mateos,MX,28.47,-107.3,57.0,90,100,1.74
516,Porto Walter,BR,-8.27,-72.74,79.03,71,1,1.68
517,Koutsouras,GR,35.03,25.95,84.43,51,0,6.71
518,Bella Union,UY,-30.28,-57.6,70.02,73,100,13.33
519,Road Town,VG,18.42,-64.62,84.2,74,20,10.29
520,Massa Marittima,IT,43.05,10.89,87.12,29,14,9.98
521,Dickinson,US,29.46,-95.05,79.74,83,75,5.82
522,Carora,VE,10.18,-70.08,80.56,62,59,6.67
523,Viesca,MX,25.35,-102.8,75.0,53,75,8.05
524,Basiad,PH,14.16,122.34,80.71,83,56,6.69
525,Abadan,TM,38.05,58.21,104.0,15,0,18.34
526,Safranbolu,TR,41.25,32.69,78.8,74,75,3.36
527,Jasdan,IN,22.03,71.2,93.99,70,18,16.78
528,Farah,AF,32.5,62.5,103.82,7,0,20.04
529,Altzayanca,MX,19.43,-97.78,51.8,87,40,8.05
530,Mercedes,AR,-34.65,-59.43,54.41,98,100,4.85
531,Përmet,AL,40.23,20.35,85.24,27,0,9.33
532,Houma,US,29.6,-90.72,78.6,95,21,8.52
533,Srednekolymsk,RU,67.45,153.68,64.49,60,98,6.24
534,Fort Nelson,CA,58.81,-122.7,56.86,71,100,1.95
535,Port-Gentil,GA,-0.72,8.78,74.8,76,59,8.93
536,Tuy Hoa,VN,13.08,109.3,80.37,82,92,6.38
537,College,US,64.86,-147.8,54.73,76,40,5.82
538,Solnechnyy,RU,50.72,136.63,69.22,85,100,1.66
539,Honningsvåg,NO,70.98,25.97,50.0,93,90,9.17
540,Paris,FR,48.85,2.35,75.52,49,20,12.75
541,Villaviciosa,ES,43.48,-5.44,77.0,58,0,7.87
542,Carupano,VE,10.67,-63.26,81.84,75,26,6.33
